City_ID,City,Lat,Lng,Max Temp,Humidity,Cloudiness,Wind Speed,Country,Date
0,puerto ayora,-0.7393,-90.3518,299.13,87,84,3.13,EC,1669746147
1,jamestown,42.097,-79.2353,280.92,88,100,4.63,US,1669746148
2,kapaa,22.0752,-159.319,297.14,91,0,3.09,US,1669746149
3,roald,62.5833,6.1333,281.11,70,75,1.03,NO,1669746150
4,anadyr,64.75,177.4833,274.43,80,0,9.0,RU,1669746151
5,lata,40.1629,-8.3327,284.3,89,100,0.65,PT,1669746151
6,khatanga,71.9667,102.5,260.43,92,100,6.12,RU,1669746152
7,bage,-31.3314,-54.1069,306.03,38,40,3.6,BR,1669746153
8,kloulklubed,7.0419,134.2556,299.43,78,93,8.26,PW,1669746153
9,vostok,46.4856,135.8833,254.82,95,100,4.83,RU,1669746154
10,bacolod,10.6667,122.95,298.78,83,49,4.49,PH,1669746154
11,rikitea,-23.1203,-134.9692,295.63,77,66,7.45,PF,1669746155
12,ascension,30.2169,-90.9001,301.52,81,100,7.72,US,1669746156
13,port hardy,50.6996,-127.4199,273.25,93,100,14.4,CA,1669746156
14,vaini,-21.2,-175.2,298.24,78,20,5.14,TO,1669746157
15,vanderhoof,54.0166,-124.0198,254.5,78,100,2.66,CA,1669746159
16,cape town,-33.9258,18.4232,294.33,81,0,5.14,ZA,1669745838
17,richards bay,-28.783,32.0377,292.36,75,7,2.9,ZA,1669746160
18,tuktoyaktuk,69.4541,-133.0374,254.15,84,100,7.2,CA,1669746160
19,srednekolymsk,67.45,153.6833,247.01,97,100,5.24,RU,1669746161
20,berdigestyakh,62.0989,126.6992,239.8,96,100,3.28,RU,1669746161
21,faanui,-16.4833,-151.75,299.46,76,17,5.75,PF,1669746162
22,busselton,-33.65,115.3333,293.63,52,58,6.27,AU,1669746163
23,vardo,70.3705,31.1107,275.14,80,100,8.23,NO,1669746163
24,west wendover,40.7391,-114.0733,271.71,43,0,4.12,US,1669746164
25,whitehorse,60.7161,-135.0538,254.71,77,100,7.2,CA,1669746164
26,erode,11.35,77.7333,295.84,88,30,2.5,IN,1669746165
27,kaitangata,-46.2817,169.8464,284.51,97,100,1.55,NZ,1669746166
28,hermanus,-34.4187,19.2345,291.93,87,6,0.26,ZA,1669746167
29,arlit,18.7369,7.3853,297.29,18,56,2.56,NE,1669746167
30,ushuaia,-54.8,-68.3,281.94,66,75,12.35,AR,1669746168
31,kaka,37.3482,59.6143,284.09,70,4,2.01,TM,1669745890
32,impfondo,1.6381,18.0667,295.2,97,74,0.75,CG,1669746169
33,punta arenas,-53.15,-70.9167,283.21,53,75,11.83,CL,1669746044
34,san cristobal,7.7669,-72.225,295.25,88,100,0.83,VE,1669746170
35,bay saint louis,30.3088,-89.33,298.23,94,100,5.14,US,1669746171
36,beringovskiy,63.05,179.3167,270.68,96,100,3.25,RU,1669746172
37,soanierana ivongo,-16.9167,49.5833,296.19,88,5,1.6,MG,1669746172
38,jiaohe,43.7286,127.3447,256.45,76,95,3.95,CN,1669746173
39,tupik,54.4253,119.9327,246.56,96,100,2.41,RU,1669746173
40,provideniya,64.3833,-173.3,270.65,98,100,2.47,RU,1669746133
41,tevaitoa,-16.7833,-151.5,299.18,79,21,6.5,PF,1669746174
42,dakoro,14.5106,6.765,297.14,17,22,4.24,NE,1669746175
43,sorland,67.667,12.6934,280.07,69,100,7.31,NO,1669746176
44,iberia,29.9502,-91.7507,299.28,78,100,8.75,US,1669746176
45,bayir,37.2687,28.2167,282.44,89,99,0.88,TR,1669746177
46,new norfolk,-42.7826,147.0587,283.87,65,100,0.45,AU,1669746177
47,talnakh,69.4865,88.3972,252.15,99,93,3.15,RU,1669746178
48,mataura,-46.1927,168.8643,283.95,99,100,1.48,NZ,1669746178
49,hasaki,35.7333,140.8333,290.53,96,100,7.74,JP,1669746179
50,bluff,-46.6,168.3333,285.08,85,100,3.78,NZ,1669746179
51,cabo san lucas,22.8909,-109.9124,300.76,64,0,0.0,MX,1669746092
52,chokurdakh,70.6333,147.9167,248.45,98,100,4.15,RU,1669746180
53,atuona,-9.8,-139.0333,298.54,72,28,7.49,PF,1669746102
54,hilo,19.7297,-155.09,297.66,86,20,3.09,US,1669746182
55,kavaratti,10.5669,72.642,300.86,69,48,0.67,IN,1669746182
56,geraldton,-28.7667,114.6,294.38,88,100,3.09,AU,1669746183
57,bethel,41.3712,-73.414,279.55,61,75,2.57,US,1669746184
58,tandil,-37.3217,-59.1332,307.42,24,80,4.29,AR,1669746006
59,saint-philippe,-21.3585,55.7679,297.92,81,96,2.77,RE,1669746186
60,saint george,37.1041,-113.5841,283.59,25,0,4.02,US,1669746187
61,las palmas,28.4204,-14.0131,292.59,73,75,6.17,ES,1669746187
62,zapolyarnyy,69.4154,30.8136,272.75,91,100,7.39,RU,1669746080
63,cockburn town,21.4612,-71.1419,299.85,75,83,4.81,TC,1669746188
64,albany,42.6001,-73.9662,277.13,68,81,1.23,US,1669746167
65,neiafu,-18.65,-173.9833,299.53,89,40,3.6,TO,1669746190
66,chicama,-7.8447,-79.1469,293.45,59,79,5.4,PE,1669746191
67,saint-denis,48.9167,2.3333,281.53,94,100,2.06,FR,1669746192
68,lebu,-37.6167,-73.65,289.86,77,77,6.49,CL,1669746192
69,guerrero negro,27.9769,-114.0611,291.83,56,40,6.91,MX,1669746193
70,adrar,20.5022,-10.0711,295.82,15,0,4.31,MR,1669746194
71,soyo,-6.1349,12.3689,299.4,81,100,2.47,AO,1669746194
72,barrow,71.2906,-156.7887,257.16,78,100,5.14,US,1669746195
73,kardzhin,43.2737,44.2907,273.87,82,100,4.08,RU,1669746195
74,bam,29.106,58.357,289.46,31,62,1.5,IR,1669746197
75,kandi,11.1342,2.9386,300.85,19,14,1.56,BJ,1669746198
76,mar del plata,-38.0023,-57.5575,304.16,76,0,7.2,AR,1669746199
77,tual,-5.6667,132.75,301.39,76,100,8.13,ID,1669746199
78,avarua,-21.2078,-159.775,298.18,83,100,6.17,CK,1669746199
79,komsomolskiy,40.4272,71.7189,279.55,87,74,1.03,UZ,1669746200
80,carnarvon,-24.8667,113.6333,294.69,85,0,6.77,AU,1669746201
81,kisangani,0.5167,25.2,294.61,85,91,0.73,CD,1669746204
82,carutapera,-1.195,-46.02,302.11,60,100,3.45,BR,1669745996
83,aksarka,66.5606,67.7975,258.23,97,100,1.17,RU,1669746205
84,alice,27.7523,-98.0697,302.84,67,0,5.66,US,1669746206
85,faya,18.3851,42.4509,287.21,65,2,1.51,SA,1669746207
86,zolotkovo,55.5281,41.1053,263.53,96,34,1.71,RU,1669746208
87,tshane,-24.0196,21.8684,303.32,21,28,4.63,BW,1669746210
88,armizonskoye,55.9461,67.6736,254.79,86,38,2.91,RU,1669746211
89,carauari,-4.8828,-66.8958,306.46,46,53,2.19,BR,1669746212
90,banfora,10.6333,-4.7667,302.65,24,20,0.73,BF,1669746212
91,nanortalik,60.1432,-45.2371,273.58,82,100,4.81,GL,1669746213
92,port blair,11.6667,92.75,299.17,89,20,0.0,IN,1669746008
93,bud,39.447,-86.1758,290.12,69,92,7.94,US,1669746214
94,la palma,33.8464,-118.0467,291.76,66,40,2.06,US,1669746214
95,sinnamary,5.3833,-52.95,299.72,84,87,4.47,GF,1669746215
96,port alfred,-33.5906,26.891,297.25,74,17,10.85,ZA,1669746215
97,georgetown,5.4112,100.3354,299.95,91,20,1.54,MY,1669745998
98,fomboni,-12.28,43.7425,299.85,75,4,6.76,KM,1669746216
99,kunashak,55.7032,61.5498,254.55,88,77,1.63,RU,1669746217
100,dikson,73.5069,80.5464,253.7,100,100,3.1,RU,1669746217
101,ponta do sol,32.6667,-17.1,293.55,69,43,1.22,PT,1669746218
102,bambous virieux,-20.3428,57.7575,297.29,78,40,1.54,MU,1669746219
103,leh,34.1667,77.5833,266.37,47,94,0.44,IN,1669746219
104,port moresby,-9.4431,147.1797,296.83,94,40,5.14,PG,1669746220
105,hobyo,5.3505,48.5268,299.78,73,51,6.7,SO,1669746220
106,nikolskoye,59.7035,30.7861,271.09,94,98,2.29,RU,1669746221
107,cap malheureux,-19.9842,57.6142,296.74,72,83,5.75,MU,1669746221
108,yushala,57.0761,64.2601,258.67,79,100,2.64,RU,1669746222
109,esperance,-33.8667,121.9,289.27,74,0,7.63,AU,1669745942
110,south lake tahoe,38.9332,-119.9844,275.55,55,0,0.0,US,1669746223
111,puqi,29.7167,113.8833,274.79,89,100,6.39,CN,1669746223
112,miyang,24.4042,103.4428,285.64,79,0,0.52,CN,1669746224
113,nantucket,41.2835,-70.0995,282.21,71,100,3.09,US,1669746093
114,yellowknife,62.456,-114.3525,242.9,76,40,3.6,CA,1669746225
115,hobart,-42.8794,147.3294,284.07,72,95,3.6,AU,1669746226
116,ballybofey,54.8,-7.7833,279.03,94,98,2.79,IE,1669746226
117,muravlenko,63.7898,74.523,255.83,90,100,2.63,RU,1669746227
118,guanica,17.9716,-66.908,302.61,75,37,3.46,PR,1669746227
119,bensonville,6.4461,-10.6125,301.9,81,50,1.96,LR,1669746228
120,vila velha,-20.3297,-40.2925,298.12,83,75,5.66,BR,1669746228
121,butaritari,3.0707,172.7902,300.02,77,38,3.9,KI,1669746229
122,shimanovsk,52.0,127.7,250.86,93,100,5.06,RU,1669746230
123,bolitoc,15.7395,119.8769,299.54,83,9,2.05,PH,1669746230
124,benguela,-12.5763,13.4055,298.07,83,94,3.97,AO,1669746231
125,balsas,-7.5325,-46.0356,295.31,96,100,1.29,BR,1669746231
126,vestmannaeyjar,63.4427,-20.2734,280.7,87,75,18.01,IS,1669746232
127,kavieng,-2.5744,150.7967,300.86,68,76,2.31,PG,1669746233
128,guspini,39.5406,8.6294,282.44,73,91,6.39,IT,1669746233
129,east london,-33.0153,27.9116,294.67,83,0,5.66,ZA,1669746234
130,chuy,-33.6971,-53.4616,298.59,55,0,6.59,UY,1669746234
131,margate,51.3813,1.3862,283.54,88,65,0.89,GB,1669746235
132,omsukchan,62.5333,155.8,240.49,97,92,1.5,RU,1669746236
133,upernavik,72.7868,-56.1549,257.67,94,100,5.92,GL,1669746236
134,highland springs,37.546,-77.3278,287.35,55,75,2.06,US,1669746237
135,narsaq,60.9167,-46.05,273.27,84,100,0.77,GL,1669746238
136,ust-maya,60.4167,134.5333,237.59,96,100,1.09,RU,1669746238
137,kargasok,59.0556,80.8572,247.2,96,43,1.8,RU,1669746239
138,tornio,65.8481,24.1466,272.16,86,96,4.5,FI,1669746240
139,ribeira grande,38.5167,-28.7,291.37,88,40,5.14,PT,1669746241
140,sumbe,-11.2061,13.8437,298.92,84,98,2.81,AO,1669746241
141,nadym,65.5333,72.5167,258.82,96,100,2.14,RU,1669746242
142,kalaleh,37.3807,55.4916,283.93,76,0,2.06,IR,1669746243
143,matara,5.9485,80.5353,297.88,86,65,1.59,LK,1669746243
144,tasiilaq,65.6145,-37.6368,276.24,96,100,11.6,GL,1669746244
145,mangrol,21.1167,70.1167,297.0,41,100,3.34,IN,1669746245
146,wanning,18.8003,110.3967,297.45,88,7,1.22,CN,1669746245
147,cherskiy,68.75,161.3,253.47,97,100,6.24,RU,1669746246
148,bredasdorp,-34.5322,20.0403,293.22,67,14,2.11,ZA,1669746247
149,manavalakurichi,8.1333,77.3,298.31,85,46,2.27,IN,1669746248
150,dingle,10.9995,122.6711,297.51,91,35,3.35,PH,1669746248
151,severo-kurilsk,50.6789,156.125,274.65,97,100,11.19,RU,1669746249
152,torbay,47.6666,-52.7314,275.24,74,75,8.75,CA,1669746250
153,yarada,17.65,83.2667,294.33,94,9,1.03,IN,1669746251
154,valdepenas,38.7621,-3.3848,281.4,52,56,1.7,ES,1669746252
155,nago,26.5881,127.9761,298.4,89,8,3.71,JP,1669746224
156,sur,22.5667,59.5289,297.96,57,0,1.75,OM,1669746047
157,khanpur,28.6453,70.6567,291.81,20,50,2.01,PK,1669746253
158,harper,4.375,-7.7169,299.42,78,91,2.09,LR,1669746254
159,vila,42.0304,-8.1588,279.64,88,100,0.84,PT,1669746255
160,sioux lookout,50.1001,-91.917,268.19,63,75,4.63,CA,1669746256
161,mogadishu,2.0371,45.3438,300.14,80,35,7.88,SO,1669746256
162,hithadhoo,-0.6,73.0833,300.84,73,92,4.63,MV,1669746257
163,port elizabeth,-33.918,25.5701,296.54,85,0,2.57,ZA,1669746259
164,terra boa,-23.7681,-52.4442,297.77,61,85,2.39,BR,1669746260
165,lompoc,34.6391,-120.4579,289.05,62,0,4.12,US,1669746193
166,quelimane,-17.8786,36.8883,295.91,94,99,2.38,MZ,1669746175
167,marystown,47.1666,-55.1483,273.29,67,51,9.01,CA,1669746262
168,thinadhoo,0.5333,72.9333,300.53,73,88,2.83,MV,1669746263
169,anju,39.6178,125.6647,265.18,32,46,7.85,KP,1669746263
170,providencia,28.7167,-111.5833,296.6,60,0,5.1,MX,1669746264
171,lodwar,3.1191,35.5973,302.71,39,85,7.44,KE,1669746266
172,kralendijk,12.15,-68.2667,302.14,70,40,6.69,BQ,1669746267
173,hovd,48.0056,91.6419,251.72,70,0,1.25,MN,1669746268
174,houma,29.5958,-90.7195,300.93,89,75,7.72,US,1669746269
175,berezovyy,51.6667,135.7,259.25,96,100,1.0,RU,1669746269
176,mahebourg,-20.4081,57.7,297.31,78,40,1.54,MU,1669746270
177,camaqua,-30.8511,-51.8122,298.29,64,97,5.15,BR,1669746271
178,leningradskiy,69.3833,178.4167,264.02,79,24,4.24,RU,1669746271
179,redmond,47.674,-122.1215,275.0,90,100,0.89,US,1669746082
180,mumbwa,-14.9783,27.0619,292.45,82,59,1.54,ZM,1669746272
181,urumqi,43.801,87.6005,252.68,65,0,2.0,CN,1669746121
182,fortuna,40.5982,-124.1573,280.36,94,0,3.09,US,1669746273
183,narasannapeta,18.4167,84.05,294.78,70,9,2.61,IN,1669746274
184,moree,-29.4667,149.85,292.3,70,1,4.63,AU,1669746275
185,gulu,2.7746,32.299,294.02,75,90,1.25,UG,1669746275
186,darnah,32.767,22.6367,290.44,68,50,6.39,LY,1669746276
187,tiksi,71.6872,128.8694,239.7,99,46,2.06,RU,1669746276
188,sarkikaraagac,38.0794,31.3664,281.88,72,31,1.37,TR,1669746277
189,harsud,22.1,76.7333,291.68,48,48,2.61,IN,1669746278
190,mudon,16.2578,97.7164,298.1,88,100,1.14,MM,1669746279
191,slochteren,53.2208,6.8055,280.92,92,100,2.06,NL,1669746279
192,coos bay,43.3665,-124.2179,279.39,97,100,5.14,US,1669746250
193,arraial do cabo,-22.9661,-42.0278,298.07,83,75,9.26,BR,1669746280
194,mirabad,30.4362,61.8383,288.88,43,2,4.13,AF,1669746281
195,berlevag,70.8578,29.0864,275.12,75,75,5.14,NO,1669746281
196,iqaluit,63.7506,-68.5145,248.0,70,20,7.72,CA,1669746218
197,macusani,-14.0833,-70.4333,280.06,70,91,3.0,PE,1669746282
198,touros,-5.1989,-35.4608,301.21,64,93,5.7,BR,1669746283
199,pitimbu,-7.4706,-34.8086,302.48,65,89,5.73,BR,1669746284
200,shenjiamen,29.9576,122.298,284.75,80,100,14.8,CN,1669746285
201,kodiak,57.79,-152.4072,271.88,51,0,6.17,US,1669746285
202,thompson,55.7435,-97.8558,258.24,78,100,9.77,CA,1669746286
203,clarence town,-32.5833,151.7833,291.4,86,55,0.74,AU,1669746287
204,agadir,30.4202,-9.5982,291.4,61,0,2.24,MA,1669746287
205,cayenne,4.9333,-52.3333,297.17,94,75,2.57,GF,1669746042
206,buala,-8.145,159.5921,299.08,83,97,1.35,SB,1669746288
207,koungou,-12.7336,45.2042,299.99,74,0,3.09,YT,1669746289
208,hambantota,6.1241,81.1185,296.34,100,89,1.54,LK,1669746290
209,bubaque,11.2833,-15.8333,300.46,57,58,4.02,GW,1669746290
210,paris,48.8534,2.3488,281.53,93,100,2.06,FR,1669746019
211,peniche,39.3558,-9.3811,286.18,81,80,3.19,PT,1669746291
212,mount gambier,-37.8333,140.7667,281.98,93,38,1.35,AU,1669746292
213,manaquiri,-3.3167,-60.35,304.4,45,90,2.45,BR,1669746292
214,jiangyou,31.7667,104.7167,280.93,52,100,1.71,CN,1669746293
215,norman wells,65.282,-126.8329,233.17,67,20,1.03,CA,1669746294
216,vanavara,60.34,102.2797,252.79,98,100,2.46,RU,1669746295
217,kerema,-7.9631,145.7785,298.41,86,98,0.99,PG,1669746296
218,kununurra,-15.7667,128.7333,299.14,94,74,0.51,AU,1669746297
219,ulaanbaatar,47.9077,106.8832,245.22,63,0,0.0,MN,1669746228
220,frolishchi,56.4211,42.6533,261.72,96,76,1.2,RU,1669746298
221,port lincoln,-34.7333,135.8667,286.4,79,8,3.45,AU,1669746003
222,tsiroanomandidy,-18.7667,46.0333,295.88,72,73,1.4,MG,1669746298
223,angoram,-4.0625,144.0661,295.94,99,80,0.63,PG,1669746299
224,hokitika,-42.7167,170.9667,286.83,84,85,1.94,NZ,1669746300
225,bhag,29.0415,67.8239,293.28,17,0,1.28,PK,1669746301
226,inuvik,68.3499,-133.7218,245.63,76,100,1.03,CA,1669746178
227,kurilsk,45.2333,147.8833,278.51,92,100,6.57,RU,1669746302
228,krasnoselkup,65.7,82.4667,254.21,99,97,2.5,RU,1669746303
229,cidreira,-30.1811,-50.2056,296.19,79,34,6.7,BR,1669746306
230,buin,-33.7333,-70.75,302.83,27,0,6.05,CL,1669746307
231,camacha,33.0833,-16.3333,289.83,59,75,3.09,PT,1669746308
232,kampene,-3.6,26.6667,293.29,97,98,0.59,CD,1669746309
233,akureyri,65.6835,-18.0878,270.11,86,0,2.57,IS,1669746066
234,saskylakh,71.9167,114.0833,245.39,98,100,4.03,RU,1669746310
235,broken hill,-31.95,141.4333,288.03,51,0,5.78,AU,1669746311
236,andenes,69.3143,16.1194,277.55,75,75,4.12,NO,1669746312
237,laguna,38.421,-121.4238,286.47,54,0,4.12,US,1669746132
238,stavyshche,50.4,29.5333,272.97,91,100,3.58,UA,1669746313
239,bengkulu,-3.8004,102.2655,297.6,90,100,1.28,ID,1669746314
240,cabedelo,-6.9811,-34.8339,302.52,65,90,5.17,BR,1669746314
241,gat,31.61,34.7642,290.59,100,16,1.67,IL,1669746316
242,bahia blanca,-38.7196,-62.2724,300.51,38,23,9.92,AR,1669746316
243,wajir,1.7471,40.0573,303.13,45,0,3.6,KE,1669746320
244,agbor,6.2518,6.1934,300.85,60,57,1.86,NG,1669746321
245,roros,62.5747,11.3842,271.06,86,75,1.54,NO,1669746321
246,chitrakonda,18.1167,82.0833,289.83,71,13,1.14,IN,1669746324
247,bakchar,57.0186,82.0711,247.83,95,81,1.88,RU,1669746331
248,wukari,7.85,9.7833,300.28,24,4,2.09,NG,1669746332
249,la ronge,55.1001,-105.2842,257.29,66,75,7.72,CA,1669746333
250,barcelos,41.5388,-8.6151,285.33,85,100,0.96,PT,1669746334
251,christchurch,-43.5333,172.6333,291.45,69,52,2.57,NZ,1669746306
252,bathsheba,13.2167,-59.5167,299.49,78,75,5.14,BB,1669746336
253,qaanaaq,77.484,-69.3632,247.29,78,15,2.39,GL,1669746337
254,montague,42.5356,-72.5351,278.43,62,59,1.7,US,1669746337
255,tigil,57.8,158.6667,259.06,89,81,2.65,RU,1669746338
256,ginir,7.1333,40.7,287.61,39,51,1.53,ET,1669746339
257,kilindoni,-7.9139,39.6668,299.36,80,76,4.56,TZ,1669746339
258,kathu,7.9178,98.3332,303.57,83,81,2.36,TH,1669746340
259,maniitsoq,65.4167,-52.9,272.61,88,97,4.05,GL,1669746340
260,grafton,42.207,-71.6856,279.42,61,20,3.09,US,1669746341
261,pangody,65.85,74.4859,257.99,93,99,2.32,RU,1669746341
262,iquitos,-3.7481,-73.2472,303.17,79,75,1.03,PE,1669746342
263,channel-port aux basques,47.5702,-59.1367,272.22,68,82,11.59,CA,1669746343
264,camargo,27.6667,-105.1667,294.02,24,3,4.02,MX,1669746343
265,medea,36.2642,2.7539,279.5,85,25,1.62,DZ,1669746344
266,lokosovo,61.1333,74.8167,248.82,99,94,1.57,RU,1669746345
267,ahipara,-35.1667,173.1667,289.84,94,92,3.42,NZ,1669746345
268,luderitz,-26.6481,15.1594,290.89,79,69,4.12,NA,1669746346
269,sitka,57.0531,-135.33,269.09,46,20,3.6,US,1669746346
270,baracoa,20.3467,-74.4958,301.45,63,62,3.8,CU,1669746347
271,sambava,-14.2667,50.1667,296.95,80,0,1.02,MG,1669746348
272,alto piquiri,-24.0281,-53.4406,300.37,53,59,0.28,BR,1669746348
273,okhotsk,59.3833,143.3,256.87,93,100,8.03,RU,1669746349
274,pridonskoy,51.6841,39.0727,267.46,86,0,4.0,RU,1669746349
275,strathroy,42.9551,-81.6223,280.16,68,100,6.29,CA,1669746350
276,zeya,53.75,127.2667,247.82,88,100,2.06,RU,1669746351
277,gunjur,13.2019,-16.7339,302.19,48,0,3.09,GM,1669746351
278,ixtapa,20.7,-105.2,299.72,44,75,1.54,MX,1669746352
279,santa cruz del sur,20.7147,-77.9956,304.35,53,95,4.82,CU,1669746352
280,college,64.8569,-147.8028,247.92,79,0,1.54,US,1669746153
281,clyde river,70.4692,-68.5914,242.28,76,0,5.14,CA,1669746353
282,lazaro cardenas,17.9583,-102.2,301.88,57,16,2.23,MX,1669746158
283,tangier,35.7806,-5.8137,286.79,88,0,1.03,MA,1669746354
284,husavik,66.0449,-17.3389,273.73,73,98,6.72,IS,1669746355
285,souris,49.6172,-100.2612,267.07,80,100,7.42,CA,1669746355
286,bandarbeyla,9.4942,50.8122,298.82,70,6,7.43,SO,1669746356
287,ostrovnoy,68.0531,39.5131,270.66,92,87,2.89,RU,1669746357
288,kautokeino,69.0125,23.0412,270.23,92,98,8.02,NO,1669746358
289,yazd,31.8972,54.3675,285.21,40,0,1.03,IR,1669746358
290,pangnirtung,66.1451,-65.7125,256.15,85,100,4.63,CA,1669746359
291,yar-sale,66.8333,70.8333,256.85,99,99,1.47,RU,1669746360
292,miri,4.4148,114.0089,297.23,94,40,1.03,MY,1669746361
293,lavrentiya,65.5833,-171.0,269.54,96,100,4.41,RU,1669746362
294,kankan,10.3854,-9.3057,301.69,26,8,0.89,GN,1669746363
295,fayaoue,-20.65,166.5333,300.39,79,83,3.52,NC,1669746364
296,alvin,29.4238,-95.2441,301.0,87,100,6.69,US,1669746185
297,santa cruz,-17.8,-63.1667,311.18,28,20,6.69,BO,1669746264
298,kutum,14.2,24.6667,296.71,20,35,4.3,SD,1669746366
299,zhangjiakou,40.81,114.8794,258.61,27,0,7.24,CN,1669746367
300,banda aceh,5.5577,95.3222,298.59,84,96,2.85,ID,1669746304
301,ancud,-41.8697,-73.8203,285.77,67,91,3.3,CL,1669746370
302,krasnaya polyana,56.242,51.1442,260.6,96,92,1.25,RU,1669746371
303,mayo,38.8876,-76.5119,284.63,64,0,3.6,US,1669746372
304,korla,41.7597,86.1469,264.57,28,67,1.57,CN,1669746372
305,walvis bay,-22.9575,14.5053,291.68,68,82,5.14,NA,1669746375
306,panaba,21.2833,-88.2667,305.61,40,18,5.41,MX,1669746375
307,ulaangom,49.9811,92.0667,246.66,92,67,1.8,MN,1669746376
308,beinamar,8.6698,15.3813,298.89,25,13,2.29,TD,1669746377
309,victoria,22.2855,114.1577,298.25,86,4,1.79,HK,1669746344
310,talisay,10.2447,123.8494,300.16,89,75,3.6,PH,1669746377
311,corrente,-3.7367,-43.3394,306.91,35,100,1.4,BR,1669746379
312,trinidad,-14.8333,-64.9,309.14,44,44,6.17,BO,1669746380
313,manavgat,36.7867,31.4431,289.81,66,11,3.17,TR,1669746381
314,teahupoo,-17.8333,-149.2667,298.13,78,46,5.43,PF,1669746382
315,kondinskoye,59.6481,67.41,252.81,94,90,2.3,RU,1669746383
316,tura,25.5198,90.2201,290.21,87,0,1.56,IN,1669746384
317,aracatuba,-21.2089,-50.4328,304.25,42,40,4.12,BR,1669746385
318,la grande,45.3246,-118.0877,272.17,85,97,2.48,US,1669746386
319,kaeo,-35.1,173.7833,291.11,96,87,2.62,NZ,1669746386
320,lorengau,-2.0226,147.2712,300.5,72,79,2.81,PG,1669746387
321,kysyl-syr,63.8986,122.7617,235.91,99,99,2.38,RU,1669746388
322,plettenberg bay,-34.0527,23.3716,294.63,68,36,2.35,ZA,1669746389
323,det udom,14.906,105.0784,298.05,76,51,1.82,TH,1669746389
324,tuatapere,-46.1333,167.6833,284.08,94,99,0.63,NZ,1669746390
325,leninsk,48.7119,45.1994,269.49,49,5,4.27,RU,1669746391
326,burns lake,54.2331,-125.7533,257.83,72,100,1.96,CA,1669746312
327,umm lajj,25.0213,37.2685,298.52,63,3,4.76,SA,1669746392
328,lagoa,39.05,-27.9833,290.18,87,89,5.8,PT,1669746393
329,kuznechnoye,61.12,29.8686,271.19,93,99,1.9,RU,1669746394
330,portland,45.5234,-122.6762,277.64,92,100,2.68,US,1669746067
331,mastung,29.7994,66.845,282.69,32,0,1.65,PK,1669746395
332,bowen,-20.0167,148.2333,298.12,86,99,2.84,AU,1669746395
333,emba,48.8264,58.1442,265.66,51,100,6.47,KZ,1669746396
334,nuuk,64.1835,-51.7216,272.49,86,75,3.09,GL,1669746397
335,nowy sacz,49.6218,20.6971,274.36,88,17,1.44,PL,1669746397
336,rio grande,-32.035,-52.0986,301.21,66,13,7.28,BR,1669746398
337,churapcha,62.0025,132.4325,234.27,98,100,1.55,RU,1669746400
338,baoshan,46.5586,131.4244,257.89,71,70,7.76,CN,1669746400
339,kalmunai,7.4167,81.8167,297.75,78,63,2.7,LK,1669746401
340,tambura,5.6,27.4667,299.63,53,100,2.96,SS,1669746401
341,gizo,-8.103,156.8419,300.57,77,100,1.3,SB,1669746402
342,sabya,17.1495,42.6254,300.94,68,0,1.3,SA,1669746403
343,sechura,-5.5569,-80.8222,298.41,61,57,6.82,PE,1669746403
344,rio gallegos,-51.6226,-69.2181,287.18,26,40,15.43,AR,1669746404
345,sabang,5.8933,95.3214,300.46,74,95,1.86,ID,1669746405
346,puerto narino,-3.7703,-70.3831,302.06,67,71,1.58,CO,1669746405
347,alofi,-19.0595,-169.9187,298.09,83,88,3.09,NU,1669746406
348,binzhou,37.3667,118.0167,267.18,27,34,4.62,CN,1669746407
349,balkhash,46.844,74.9804,263.18,54,100,7.93,KZ,1669746407
350,black river,18.0264,-77.8487,302.18,60,10,3.61,JM,1669746408
351,karacakoy,41.4029,28.3834,287.41,86,99,5.58,TR,1669746409
352,athmallik,20.7219,84.5348,291.49,69,4,0.28,IN,1669746409
353,klaksvik,62.2266,-6.589,278.66,86,69,3.22,FO,1669746410
354,port-gentil,-0.7193,8.7815,298.13,88,75,1.54,GA,1669746411
355,beidao,34.5686,105.8933,267.15,26,35,1.51,CN,1669746411
356,dunedin,-45.8742,170.5036,285.82,89,100,4.47,NZ,1669746365
357,odweyne,9.4092,45.064,293.23,37,0,6.51,SO,1669746413
358,eureka,40.8021,-124.1637,280.51,90,27,0.45,US,1669746244
359,stornoway,58.2093,-6.3865,281.13,95,75,2.06,GB,1669746414
360,nanakuli,21.3906,-158.1547,298.63,71,0,1.54,US,1669746414
361,san carlos de bariloche,-41.1456,-71.3082,291.01,42,40,10.29,AR,1669746415
362,pajapan,18.25,-94.7,299.24,74,88,1.64,MX,1669746415
363,kruisfontein,-34.0033,24.7314,295.31,73,85,1.79,ZA,1669746416
364,sedniv,51.6447,31.565,272.42,80,100,4.64,UA,1669746416
365,gemena,3.25,19.7667,295.46,93,46,0.98,CD,1669746417
366,quesnel,52.9999,-122.5029,257.43,78,100,0.0,CA,1669746418
367,tulum,20.2167,-87.4667,302.53,59,54,3.88,MX,1669746418
368,gold coast,-28.0,153.4333,295.47,88,100,4.63,AU,1669746419
369,kitgum,3.2783,32.8867,298.16,48,96,2.39,UG,1669746419
370,isangel,-19.55,169.2667,298.21,88,91,2.06,VU,1669746420
371,acapulco,16.8634,-99.8901,301.05,74,100,1.54,MX,1669746420
372,stabat,3.761,98.4513,298.26,95,96,1.07,ID,1669746421
373,padang,-0.9492,100.3543,297.18,86,100,0.81,ID,1669746422
374,dharchula,29.85,80.5333,286.38,28,87,2.99,IN,1669746422
375,mugumu,-1.85,34.7,290.99,83,91,1.1,TZ,1669746423
376,kumba,4.6363,9.4469,298.08,78,57,0.6,CM,1669746424
377,horki,54.2861,30.9842,269.46,92,100,4.15,BY,1669746425
378,marsa matruh,31.3525,27.2453,290.26,67,0,0.0,EG,1669746426
379,longyearbyen,78.2186,15.6401,278.06,81,75,4.12,SJ,1669746426
380,ilulissat,69.2167,-51.1,268.16,68,75,4.63,GL,1669746427
381,castro,-24.7911,-50.0119,290.68,93,100,4.22,BR,1669746427
382,coquimbo,-29.9533,-71.3436,293.0,68,75,5.14,CL,1669746428
383,ketchikan,55.3422,-131.6461,268.41,50,0,1.54,US,1669746429
384,mujiayingzi,42.1167,118.7833,256.63,33,0,4.79,CN,1669746430
385,muisne,0.6,-80.0333,298.69,73,93,4.84,EC,1669746430
386,cavalcante,-13.7975,-47.4583,298.49,68,47,3.47,BR,1669746431
387,khani,41.9563,42.9566,283.91,63,100,2.73,GE,1669746432
388,homer,59.6425,-151.5483,264.08,67,0,0.0,US,1669746433
389,golden,39.7555,-105.2211,268.76,82,100,2.68,US,1669746433
390,noumea,-22.2763,166.4572,300.37,99,83,1.08,NC,1669746434
391,puerto baquerizo moreno,-0.9,-89.6,297.7,65,75,4.12,EC,1669746435
392,priekule,56.4468,21.5897,272.77,92,100,3.52,LV,1669746436
393,yeroham,30.9872,34.9314,287.45,71,14,2.03,IL,1669746437
394,noyabrsk,63.1994,75.4507,252.49,95,100,3.22,RU,1669746437
395,sao filipe,14.8961,-24.4956,298.35,61,59,2.81,CV,1669746438
396,wyndham,37.6985,-77.6125,287.17,55,0,2.06,US,1669746439
397,iralaya,15.0,-83.2333,301.78,64,24,5.13,HN,1669746440
398,floro,61.5996,5.0328,280.35,65,75,7.2,NO,1669746440
399,ishigaki,24.3448,124.1572,296.22,100,85,1.03,JP,1669746441
400,san vicente,-26.6167,-54.1333,299.14,55,87,1.91,AR,1669746442
401,hami,42.8,93.45,261.11,21,5,2.14,CN,1669746442
402,dickinson,29.4608,-95.0513,300.46,88,100,6.69,US,1669746244
403,san quintin,30.4833,-115.95,289.85,57,50,4.54,MX,1669746444
404,hamilton,39.1834,-84.5333,289.26,65,0,6.69,US,1669746389
405,pacific grove,36.6177,-121.9166,285.05,71,0,4.02,US,1669746243
406,inhambane,-23.865,35.3833,296.14,64,20,3.09,MZ,1669746448
407,caravelas,-17.7125,-39.2481,299.09,81,89,2.41,BR,1669746449
408,atasu,48.6814,71.6433,261.6,67,100,5.64,KZ,1669746450
409,te anau,-45.4167,167.7167,282.6,94,96,0.62,NZ,1669746450
410,methoni,36.8197,21.7049,287.16,67,42,8.72,GR,1669746451
411,oranjemund,-28.55,16.4333,291.35,79,52,3.04,NA,1669746452
412,saint peter,13.25,-59.6167,298.46,75,15,7.7,BB,1669746452
413,ratnagiri,16.9833,73.3,297.85,75,35,2.26,IN,1669746231
414,high level,58.5169,-117.136,251.21,77,75,6.17,CA,1669746453
415,vestmanna,62.1564,-7.1664,277.66,93,100,1.54,FO,1669746454
416,dolinsk,47.35,142.8,268.28,70,61,8.67,RU,1669746455
417,kahului,20.8947,-156.47,299.17,88,0,2.57,US,1669746455
418,bahia honda,22.9036,-83.1592,302.38,60,18,4.66,CU,1669746456
419,flinders,-34.5833,150.8552,287.8,85,78,1.19,AU,1669746456
420,alyangula,-13.8483,136.4192,299.95,76,100,1.38,AU,1669746457
421,norsup,-16.0667,167.3833,300.02,81,53,2.98,VU,1669746457
422,birmingham,33.5207,-86.8025,296.23,67,20,5.66,US,1669745904
423,omboue,-1.5746,9.2618,297.51,88,96,2.08,GA,1669746459
424,kovdor,67.5662,30.4758,267.5,96,93,2.69,RU,1669746459
425,constitucion,-35.3333,-72.4167,292.31,60,75,5.51,CL,1669746460
426,sokoni,-6.4333,39.55,300.07,76,50,4.76,TZ,1669746460
427,qingdao,36.0986,120.3719,269.93,68,75,8.0,CN,1669746461
428,gillette,44.2911,-105.5022,262.61,74,100,5.66,US,1669746462
429,taoudenni,22.6783,-3.9836,294.99,16,0,4.9,ML,1669746462
430,gander,48.9682,-54.5906,269.22,79,75,7.2,CA,1669746463
431,bauchi,10.5,10.0,296.35,26,60,2.89,NG,1669746463
432,yaan,7.3833,8.5667,301.39,22,9,1.28,NG,1669746464
433,ikryanoye,46.0932,47.7308,268.14,36,0,5.39,RU,1669746465
434,marawi,7.9986,124.2928,293.05,94,72,0.64,PH,1669746465
435,bardiyah,31.7561,25.0865,290.85,69,48,1.27,LY,1669746466
436,binga,-17.6203,27.3414,298.76,59,40,2.14,ZW,1669746467
437,vilhena,-12.7406,-60.1458,308.45,24,59,2.51,BR,1669746467
438,thunder bay,48.4001,-89.3168,274.14,93,100,1.03,CA,1669746468
439,zilair,52.2332,57.4392,255.31,85,3,1.71,RU,1669746469
440,mehamn,71.0357,27.8492,275.1,80,75,4.63,NO,1669746469
441,panama city,8.9936,-79.5197,300.47,86,75,3.6,PA,1669746470
442,bilma,18.6853,12.9164,293.31,32,99,3.62,NE,1669746470
443,la romana,18.4273,-68.9728,303.35,58,40,3.6,DO,1669746471
444,oga,46.4631,10.347,273.45,97,100,1.73,IT,1669746471
445,bronkhorstspruit,-25.8102,28.7425,296.24,53,22,1.81,ZA,1669746472
446,genhe,50.7833,121.5167,239.04,98,68,1.74,CN,1669746473
447,cobija,-11.0267,-68.7692,308.25,49,40,1.54,BO,1669746473
448,kota tinggi,1.7381,103.8999,299.17,94,58,1.33,MY,1669746474
449,puerto quijarro,-17.7833,-57.7667,314.4,14,19,1.72,BO,1669746474
450,innisfail,-17.5333,146.0333,297.36,91,100,1.05,AU,1669746212
451,bandar-e lengeh,26.5579,54.8807,297.21,33,68,2.06,IR,1669746475
452,honiara,-9.4333,159.95,298.49,86,100,0.68,SB,1669746476
453,celestun,20.8667,-90.4,303.5,59,43,2.32,MX,1669746476
454,belaya gora,68.5333,146.4167,245.78,99,100,2.72,RU,1669746477
455,mgandu,-5.95,34.1333,295.14,52,90,2.26,TZ,1669746478
456,gorontalo,0.5412,123.0595,297.47,93,95,1.64,ID,1669746479
457,esna,25.2934,32.554,294.16,31,28,4.15,EG,1669746480
458,nizhniy kuranakh,58.8353,125.4869,243.49,97,100,2.27,RU,1669746481
459,the valley,18.217,-63.0578,302.23,61,40,5.14,AI,1669746482
460,payakumbuh,-0.2202,100.6308,294.51,96,100,1.03,ID,1669746483
461,navirai,-23.065,-54.1906,302.41,48,33,1.83,BR,1669746484
462,atar,20.5169,-13.0499,298.75,13,0,4.34,MR,1669746484
463,mikhaylovka,50.06,43.2379,268.62,52,4,4.74,RU,1669746485
464,kotdwara,29.75,78.5333,289.81,76,99,1.96,IN,1669746486
465,victor harbor,-35.5667,138.6167,287.59,69,28,2.45,AU,1669746487
466,ajdabiya,30.7554,20.2263,291.17,54,13,3.6,LY,1669746487
467,chihuahua,28.5,-106.0,292.71,18,0,6.94,MX,1669746489
468,loughrea,53.1969,-8.5669,278.1,95,93,2.87,IE,1669746490
469,sindou,10.6667,-5.1667,301.59,24,12,1.01,BF,1669746491
470,planaltina,-15.4528,-47.6142,298.08,58,44,3.47,BR,1669746491
471,havre-saint-pierre,50.2334,-63.5986,268.15,58,0,8.23,CA,1669746492
472,kingaroy,-26.5333,151.8333,290.62,91,100,5.72,AU,1669746492
473,taguatinga,-12.3857,-46.5711,298.87,79,100,4.13,BR,1669746493
474,tiebissou,7.1574,-5.2257,303.2,59,91,0.68,CI,1669746494
475,comodoro rivadavia,-45.8667,-67.5,285.07,62,20,3.6,AR,1669746496
476,vila franca do campo,37.7167,-25.4333,292.15,86,46,3.26,PT,1669746454
477,airai,-8.9266,125.4092,288.93,96,77,0.7,TL,1669746497
478,ankang,32.68,109.0172,274.94,61,100,2.31,CN,1669746435
479,blythe,33.6103,-114.5964,289.84,44,0,0.0,US,1669746290
480,waspan,14.7419,-83.9717,302.85,61,22,2.38,NI,1669746499
481,blytheville,35.9273,-89.919,289.18,87,100,6.17,US,1669746499
482,onguday,50.75,86.15,246.61,96,22,0.83,RU,1669746502
483,weiser,44.251,-116.9693,271.96,79,29,1.34,US,1669746503
484,goderich,43.7501,-81.7165,279.77,75,100,6.17,CA,1669746505
485,balakhninskiy,58.0106,114.2769,240.2,100,100,1.29,RU,1669746506
486,henties bay,-22.116,14.2845,289.23,79,67,3.67,NA,1669746508
487,bay roberts,47.5999,-53.2648,275.66,68,64,2.24,CA,1669746509
488,buraydah,26.326,43.975,296.4,23,93,5.59,SA,1669746509
489,jalu,29.0331,21.5482,289.78,47,0,2.32,LY,1669746510
490,taksimo,56.3444,114.8794,244.15,86,86,1.75,RU,1669746218
491,samarai,-10.6167,150.6667,300.04,81,99,2.85,PG,1669746511
492,kuvandyk,51.4781,57.3552,256.22,84,3,2.42,RU,1669746512
493,lodja,-3.4833,23.4333,293.73,96,97,0.85,CD,1669746512
494,tongchuan,35.0806,109.0897,266.05,18,22,3.79,CN,1669746513
495,salalah,17.0151,54.0924,300.2,74,75,1.03,OM,1669746514
496,ust-shonosha,61.1531,41.343,260.73,98,69,0.9,RU,1669746514
497,koslan,63.4564,48.8989,266.14,96,100,2.04,RU,1669746515
498,monte azul,-15.155,-42.8747,300.67,62,98,3.08,BR,1669746515
499,aitape,-3.1374,142.3475,298.19,88,96,1.14,PG,1669746516
500,marzuq,14.4,46.4667,291.6,51,0,1.26,YE,1669746516
501,mao,39.8885,4.2658,286.46,67,40,6.17,ES,1669746518
502,shadegan,30.6497,48.6647,295.12,35,100,1.55,IR,1669746518
503,lakes entrance,-37.8811,147.981,281.02,80,1,2.66,AU,1669746519
504,zhezkazgan,47.8043,67.7144,265.92,37,100,6.52,KZ,1669746519
505,talara,-4.5772,-81.2719,301.57,54,0,7.2,PE,1669746520
506,tessalit,20.1986,1.0114,298.37,15,11,3.62,ML,1669746521
507,port hedland,-20.3167,118.5667,298.18,88,75,3.09,AU,1669746521
508,birao,10.2849,22.7882,300.65,25,27,2.56,CF,1669746522
509,souillac,-20.5167,57.5167,297.36,78,40,1.54,MU,1669746522
510,seoul,37.5683,126.9778,269.81,54,0,7.72,KR,1669745795
511,dalbandin,28.8947,64.4101,288.93,27,0,2.51,PK,1669746523
512,tancanhuitz,21.6,-98.9667,301.79,61,57,2.02,MX,1669746524
513,sakakah,29.9697,40.2064,286.91,83,100,2.15,SA,1669746524
514,akyab,20.15,92.9,298.84,84,52,2.26,MM,1669746525
515,idrinskoye,54.3708,92.1358,251.53,97,73,0.82,RU,1669746526
516,ponta pora,-22.5361,-55.7256,303.1,39,20,5.14,BR,1669746526
517,menongue,-14.6585,17.691,297.04,35,96,2.17,AO,1669746528
518,nador,35.174,-2.9287,288.29,67,0,1.54,MA,1669746529
519,bulaevo,54.9056,70.4439,254.4,87,100,3.12,KZ,1669746529
520,khed,17.7167,73.3833,295.87,71,13,0.8,IN,1669746530
521,hofn,64.2539,-15.2082,277.91,85,100,4.67,IS,1669746530
522,hirara,24.8,125.2833,299.07,78,4,2.04,JP,1669746531
523,tilichiki,60.4667,166.1,264.01,91,96,3.16,RU,1669746532
524,vanimo,-2.6741,141.3028,298.62,85,89,1.42,PG,1669746532
525,maceio,-9.6658,-35.7353,300.84,78,75,5.66,BR,1669746266
526,poum,-20.2333,164.0167,300.48,81,59,5.78,NC,1669746533
527,placido de castro,-10.3353,-67.1856,312.03,23,84,2.04,BR,1669746534
528,mackay,-21.15,149.2,297.42,89,100,1.08,AU,1669746535
529,coahuayana,18.7333,-103.6833,303.54,50,7,1.95,MX,1669746535
530,alta floresta,-9.8756,-56.0861,303.05,66,40,3.09,BR,1669746536
531,rosario do sul,-30.2583,-54.9142,306.19,31,0,4.77,BR,1669746536
532,yulara,-25.2406,130.9889,293.44,28,0,5.11,AU,1669746537
533,san patricio,28.017,-97.5169,302.08,74,92,6.19,US,1669746538
534,timon,-5.0942,-42.8367,304.03,58,75,0.0,BR,1669746539
535,orbetello,42.4408,11.2196,283.16,71,100,4.76,IT,1669746540
536,presidente dutra,-5.29,-44.49,304.44,51,99,2.62,BR,1669746540
537,kindersley,51.4668,-109.1682,259.16,78,100,7.72,CA,1669746541
538,nogliki,51.8333,143.1667,264.82,92,100,11.12,RU,1669746541
539,laranja da terra,-19.8989,-41.0567,299.85,81,68,2.14,BR,1669746542
540,asau,46.4333,26.4,273.86,92,100,0.8,RO,1669746543
541,saharanpur,29.9667,77.55,290.33,58,100,1.2,IN,1669746544
542,abilene,32.4487,-99.7331,296.27,44,0,5.66,US,1669746483
543,de aar,-30.6497,24.0123,302.51,18,29,1.58,ZA,1669746545
544,sao joao da barra,-21.6403,-41.0511,298.2,88,89,8.56,BR,1669746546
545,ohara,35.25,140.3833,294.75,92,100,13.05,JP,1669746547
546,flin flon,54.7682,-101.865,258.06,72,100,8.75,CA,1669746548
547,dryden,49.7833,-92.7503,266.31,73,100,5.14,CA,1669746548
548,doha,25.2867,51.5333,298.09,69,0,2.06,QA,1669746549
549,umm kaddadah,13.6017,26.6876,300.6,20,5,4.53,SD,1669746551
550,santiago,-33.4569,-70.6483,302.9,46,20,6.69,CL,1669746326
551,tabuk,17.4189,121.4443,296.92,89,8,1.26,PH,1669746553
552,ilhabela,-23.7781,-45.3581,297.07,90,84,2.05,BR,1669746375
553,alihe,50.5667,123.7167,250.01,75,89,5.38,CN,1669746554
554,trenggalek,-8.05,111.7167,296.82,94,100,1.33,ID,1669746555
555,palmer,42.1584,-72.3287,278.96,56,75,1.54,US,1669746264
556,zhongshan,21.3226,110.5829,296.73,94,9,3.76,CN,1669746285
557,whitianga,-36.8333,175.7,290.14,93,100,4.9,NZ,1669746556
558,kharabali,47.4196,47.2568,269.96,44,1,4.81,RU,1669746557
559,gewane,10.1664,40.6453,300.27,30,28,6.31,ET,1669746558
560,batagay,67.6333,134.6333,238.37,96,100,0.32,RU,1669746559
561,hohhot,40.8106,111.6522,251.31,54,0,2.0,CN,1669746559
562,nampula,-15.1165,39.2666,300.12,61,40,6.69,MZ,1669746560
563,conde,-7.2597,-34.9075,301.85,65,75,5.66,BR,1669746561
564,preobrazheniye,42.9019,133.9064,264.04,54,98,4.98,RU,1669746561
565,gudalur,9.6833,77.2667,295.57,96,84,0.97,IN,1669746423
